%time,field.header.seq,field.header.stamp,field.header.frame_id,field.magnetic_field.x,field.magnetic_field.y,field.magnetic_field.z,field.magnetic_field_covariance0,field.magnetic_field_covariance1,field.magnetic_field_covariance2,field.magnetic_field_covariance3,field.magnetic_field_covariance4,field.magnetic_field_covariance5,field.magnetic_field_covariance6,field.magnetic_field_covariance7,field.magnetic_field_covariance8
1626894336003315201,82517,1626894336003315201,imu,41.75,0.5,-21.0625,0.0,0.0,0.0,0.0,0.0,0.0,0.0,0.0,0.0
1626894336014514055,82518,1626894336014514055,imu,41.75,0.5,-21.0625,0.0,0.0,0.0,0.0,0.0,0.0,0.0,0.0,0.0
1626894336025488899,82519,1626894336025488899,imu,41.75,0.5,-21.0625,0.0,0.0,0.0,0.0,0.0,0.0,0.0,0.0,0.0
1626894336031995461,82520,1626894336031995461,imu,41.75,0.5,-21.0625,0.0,0.0,0.0,0.0,0.0,0.0,0.0,0.0,0.0
1626894336041764315,82521,1626894336041764315,imu,42.1875,-2.0,-19.875,0.0,0.0,0.0,0.0,0.0,0.0,0.0,0.0,0.0
1626894336052086138,82522,1626894336052086138,imu,42.1875,-2.0,-19.875,0.0,0.0,0.0,0.0,0.0,0.0,0.0,0.0,0.0
1626894336063144836,82523,1626894336063144836,imu,42.1875,-2.0,-19.875,0.0,0.0,0.0,0.0,0.0,0.0,0.0,0.0,0.0
1626894336073931763,82524,1626894336073931763,imu,42.1875,-2.0,-19.875,0.0,0.0,0.0,0.0,0.0,0.0,0.0,0.0,0.0
1626894336082025669,82525,1626894336082025669,imu,42.1875,-2.0,-19.875,0.0,0.0,0.0,0.0,0.0,0.0,0.0,0.0,0.0
1626894336091368534,82526,1626894336091368534,imu,41.5,-4.375,-19.375,0.0,0.0,0.0,0.0,0.0,0.0,0.0,0.0,0.0
1626894336105850096,82527,1626894336105850096,imu,41.5,-4.375,-19.375,0.0,0.0,0.0,0.0,0.0,0.0,0.0,0.0,0.0
1626894336113643326,82528,1626894336113643326,imu,41.5,-4.375,-19.375,0.0,0.0,0.0,0.0,0.0,0.0,0.0,0.0,0.0
1626894336122960253,82529,1626894336122960253,imu,41.5,-4.375,-19.375,0.0,0.0,0.0,0.0,0.0,0.0,0.0,0.0,0.0
1626894336131699367,82530,1626894336131699367,imu,41.5,-4.375,-19.375,0.0,0.0,0.0,0.0,0.0,0.0,0.0,0.0,0.0
1626894336141440930,82531,1626894336141440930,imu,41.25,-6.75,-20.25,0.0,0.0,0.0,0.0,0.0,0.0,0.0,0.0,0.0
1626894336151949107,82532,1626894336151949107,imu,41.25,-6.75,-20.25,0.0,0.0,0.0,0.0,0.0,0.0,0.0,0.0,0.0
1626894336163131086,82533,1626894336163131086,imu,41.25,-6.75,-20.25,0.0,0.0,0.0,0.0,0.0,0.0,0.0,0.0,0.0
1626894336172986867,82534,1626894336172986867,imu,41.25,-6.75,-20.25,0.0,0.0,0.0,0.0,0.0,0.0,0.0,0.0,0.0
1626894336182468378,82535,1626894336182468378,imu,41.25,-6.75,-20.25,0.0,0.0,0.0,0.0,0.0,0.0,0.0,0.0,0.0
1626894336191387701,82536,1626894336191387701,imu,41.875,-8.0,-19.75,0.0,0.0,0.0,0.0,0.0,0.0,0.0,0.0,0.0
1626894336202767649,82537,1626894336202767649,imu,41.875,-8.0,-19.75,0.0,0.0,0.0,0.0,0.0,0.0,0.0,0.0,0.0
1626894336212894576,82538,1626894336212894576,imu,41.875,-8.0,-19.75,0.0,0.0,0.0,0.0,0.0,0.0,0.0,0.0,0.0
1626894336226742544,82539,1626894336226742544,imu,41.875,-8.0,-19.75,0.0,0.0,0.0,0.0,0.0,0.0,0.0,0.0,0.0
1626894336234326451,82540,1626894336234326451,imu,41.875,-8.0,-19.75,0.0,0.0,0.0,0.0,0.0,0.0,0.0,0.0,0.0
1626894336241393169,82541,1626894336241393169,imu,41.75,-10.75,-18.1875,0.0,0.0,0.0,0.0,0.0,0.0,0.0,0.0,0.0
1626894336252071867,82542,1626894336252071867,imu,41.75,-10.75,-18.1875,0.0,0.0,0.0,0.0,0.0,0.0,0.0,0.0,0.0
1626894336264754471,82543,1626894336264754471,imu,41.75,-10.75,-18.1875,0.0,0.0,0.0,0.0,0.0,0.0,0.0,0.0,0.0
1626894336273392023,82544,1626894336273392023,imu,41.75,-10.75,-18.1875,0.0,0.0,0.0,0.0,0.0,0.0,0.0,0.0,0.0
1626894336282368221,82545,1626894336282368221,imu,41.75,-10.75,-18.1875,0.0,0.0,0.0,0.0,0.0,0.0,0.0,0.0,0.0
1626894336291382388,82546,1626894336291382388,imu,42.375,-13.25,-17.6875,0.0,0.0,0.0,0.0,0.0,0.0,0.0,0.0,0.0
1626894336305382076,82547,1626894336305382076,imu,42.375,-13.25,-17.6875,0.0,0.0,0.0,0.0,0.0,0.0,0.0,0.0,0.0
1626894336313073169,82548,1626894336313073169,imu,42.375,-13.25,-17.6875,0.0,0.0,0.0,0.0,0.0,0.0,0.0,0.0,0.0
1626894336322945253,82549,1626894336322945253,imu,42.375,-13.25,-17.6875,0.0,0.0,0.0,0.0,0.0,0.0,0.0,0.0,0.0
1626894336332389315,82550,1626894336332389315,imu,42.375,-13.25,-17.6875,0.0,0.0,0.0,0.0,0.0,0.0,0.0,0.0,0.0
1626894336341776451,82551,1626894336341776451,imu,42.1875,-15.375,-16.75,0.0,0.0,0.0,0.0,0.0,0.0,0.0,0.0,0.0
1626894336352219471,82552,1626894336352219471,imu,42.1875,-15.375,-16.75,0.0,0.0,0.0,0.0,0.0,0.0,0.0,0.0,0.0
1626894336363040201,82553,1626894336363040201,imu,42.1875,-15.375,-16.75,0.0,0.0,0.0,0.0,0.0,0.0,0.0,0.0,0.0
1626894336373466398,82554,1626894336373466398,imu,42.1875,-15.375,-16.75,0.0,0.0,0.0,0.0,0.0,0.0,0.0,0.0,0.0
1626894336382274888,82555,1626894336382274888,imu,42.1875,-15.375,-16.75,0.0,0.0,0.0,0.0,0.0,0.0,0.0,0.0,0.0
1626894336391264263,82556,1626894336391264263,imu,42.25,-16.1875,-13.75,0.0,0.0,0.0,0.0,0.0,0.0,0.0,0.0,0.0
1626894336405472232,82557,1626894336405472232,imu,42.25,-16.1875,-13.75,0.0,0.0,0.0,0.0,0.0,0.0,0.0,0.0,0.0
1626894336413201659,82558,1626894336413201659,imu,42.25,-16.1875,-13.75,0.0,0.0,0.0,0.0,0.0,0.0,0.0,0.0,0.0
1626894336422999732,82559,1626894336422999732,imu,42.25,-16.1875,-13.75,0.0,0.0,0.0,0.0,0.0,0.0,0.0,0.0,0.0
1626894336431571138,82560,1626894336431571138,imu,42.25,-16.1875,-13.75,0.0,0.0,0.0,0.0,0.0,0.0,0.0,0.0,0.0
1626894336441250461,82561,1626894336441250461,imu,42.25,-18.5625,-14.25,0.0,0.0,0.0,0.0,0.0,0.0,0.0,0.0,0.0
1626894336452139523,82562,1626894336452139523,imu,42.25,-18.5625,-14.25,0.0,0.0,0.0,0.0,0.0,0.0,0.0,0.0,0.0
1626894336462903013,82563,1626894336462903013,imu,42.25,-18.5625,-14.25,0.0,0.0,0.0,0.0,0.0,0.0,0.0,0.0,0.0
1626894336472938117,82564,1626894336472938117,imu,42.25,-18.5625,-14.25,0.0,0.0,0.0,0.0,0.0,0.0,0.0,0.0,0.0
1626894336481432648,82565,1626894336481432648,imu,42.25,-18.5625,-14.25,0.0,0.0,0.0,0.0,0.0,0.0,0.0,0.0,0.0
1626894336491703638,82566,1626894336491703638,imu,42.0625,-19.0,-12.0,0.0,0.0,0.0,0.0,0.0,0.0,0.0,0.0,0.0
1626894336502889003,82567,1626894336502889003,imu,42.0625,-19.0,-12.0,0.0,0.0,0.0,0.0,0.0,0.0,0.0,0.0,0.0
1626894336513015825,82568,1626894336513015825,imu,42.0625,-19.0,-12.0,0.0,0.0,0.0,0.0,0.0,0.0,0.0,0.0,0.0
1626894336523002284,82569,1626894336523002284,imu,42.0625,-19.0,-12.0,0.0,0.0,0.0,0.0,0.0,0.0,0.0,0.0,0.0
1626894336531444888,82570,1626894336531444888,imu,42.0625,-19.0,-12.0,0.0,0.0,0.0,0.0,0.0,0.0,0.0,0.0,0.0
1626894336541127596,82571,1626894336541127596,imu,42.0625,-20.0625,-9.875,0.0,0.0,0.0,0.0,0.0,0.0,0.0,0.0,0.0
1626894336552859263,82572,1626894336552859263,imu,42.0625,-20.0625,-9.875,0.0,0.0,0.0,0.0,0.0,0.0,0.0,0.0,0.0
1626894336562993482,82573,1626894336562993482,imu,42.0625,-20.0625,-9.875,0.0,0.0,0.0,0.0,0.0,0.0,0.0,0.0,0.0
1626894336573674315,82574,1626894336573674315,imu,42.0625,-20.0625,-9.875,0.0,0.0,0.0,0.0,0.0,0.0,0.0,0.0,0.0
1626894336581338065,82575,1626894336581338065,imu,42.0625,-20.0625,-9.875,0.0,0.0,0.0,0.0,0.0,0.0,0.0,0.0,0.0
1626894336593307336,82576,1626894336593307336,imu,42.0625,-21.1875,-10.25,0.0,0.0,0.0,0.0,0.0,0.0,0.0,0.0,0.0
1626894336602825253,82577,1626894336602825253,imu,42.0625,-21.1875,-10.25,0.0,0.0,0.0,0.0,0.0,0.0,0.0,0.0,0.0
1626894336613334680,82578,1626894336613334680,imu,42.0625,-21.1875,-10.25,0.0,0.0,0.0,0.0,0.0,0.0,0.0,0.0,0.0
1626894336622934992,82579,1626894336622934992,imu,42.0625,-21.1875,-10.25,0.0,0.0,0.0,0.0,0.0,0.0,0.0,0.0,0.0
1626894336632389055,82580,1626894336632389055,imu,42.0625,-21.1875,-10.25,0.0,0.0,0.0,0.0,0.0,0.0,0.0,0.0,0.0
1626894336641193482,82581,1626894336641193482,imu,42.0,-21.375,-8.5,0.0,0.0,0.0,0.0,0.0,0.0,0.0,0.0,0.0
1626894336653219367,82582,1626894336653219367,imu,42.0,-21.375,-8.5,0.0,0.0,0.0,0.0,0.0,0.0,0.0,0.0,0.0
1626894336663085200,82583,1626894336663085200,imu,42.0,-21.375,-8.5,0.0,0.0,0.0,0.0,0.0,0.0,0.0,0.0,0.0
1626894336673282857,82584,1626894336673282857,imu,42.0,-21.375,-8.5,0.0,0.0,0.0,0.0,0.0,0.0,0.0,0.0,0.0
1626894336681307700,82585,1626894336681307700,imu,42.0,-21.375,-8.5,0.0,0.0,0.0,0.0,0.0,0.0,0.0,0.0,0.0
1626894336692518794,82586,1626894336692518794,imu,43.0,-21.25,-7.6875,0.0,0.0,0.0,0.0,0.0,0.0,0.0,0.0,0.0
1626894336705214419,82587,1626894336705214419,imu,43.0,-21.25,-7.6875,0.0,0.0,0.0,0.0,0.0,0.0,0.0,0.0,0.0
1626894336713097909,82588,1626894336713097909,imu,43.0,-21.25,-7.6875,0.0,0.0,0.0,0.0,0.0,0.0,0.0,0.0,0.0
1626894336726490148,82589,1626894336726490148,imu,43.0,-21.25,-7.6875,0.0,0.0,0.0,0.0,0.0,0.0,0.0,0.0,0.0
1626894336733852544,82590,1626894336733852544,imu,43.0,-21.25,-7.6875,0.0,0.0,0.0,0.0,0.0,0.0,0.0,0.0,0.0
1626894336743310461,82591,1626894336743310461,imu,43.0625,-21.875,-7.0,0.0,0.0,0.0,0.0,0.0,0.0,0.0,0.0,0.0
1626894336752703846,82592,1626894336752703846,imu,43.0625,-21.875,-7.0,0.0,0.0,0.0,0.0,0.0,0.0,0.0,0.0,0.0
1626894336763199836,82593,1626894336763199836,imu,43.0625,-21.875,-7.0,0.0,0.0,0.0,0.0,0.0,0.0,0.0,0.0,0.0
1626894336773374315,82594,1626894336773374315,imu,43.0625,-21.875,-7.0,0.0,0.0,0.0,0.0,0.0,0.0,0.0,0.0,0.0
1626894336781215409,82595,1626894336781215409,imu,43.0625,-21.875,-7.0,0.0,0.0,0.0,0.0,0.0,0.0,0.0,0.0,0.0
1626894336791120409,82596,1626894336791120409,imu,42.75,-21.375,-6.1875,0.0,0.0,0.0,0.0,0.0,0.0,0.0,0.0,0.0
1626894336803211086,82597,1626894336803211086,imu,42.75,-21.375,-6.1875,0.0,0.0,0.0,0.0,0.0,0.0,0.0,0.0,0.0
1626894336813159211,82598,1626894336813159211,imu,42.75,-21.375,-6.1875,0.0,0.0,0.0,0.0,0.0,0.0,0.0,0.0,0.0
1626894336823315096,82599,1626894336823315096,imu,42.75,-21.375,-6.1875,0.0,0.0,0.0,0.0,0.0,0.0,0.0,0.0,0.0
1626894336832399471,82600,1626894336832399471,imu,42.75,-21.375,-6.1875,0.0,0.0,0.0,0.0,0.0,0.0,0.0,0.0,0.0
1626894336841136711,82601,1626894336841136711,imu,43.5,-21.75,-5.5625,0.0,0.0,0.0,0.0,0.0,0.0,0.0,0.0,0.0
1626894336852885148,82602,1626894336852885148,imu,43.5,-21.75,-5.5625,0.0,0.0,0.0,0.0,0.0,0.0,0.0,0.0,0.0
1626894336863382544,82603,1626894336863382544,imu,43.5,-21.75,-5.5625,0.0,0.0,0.0,0.0,0.0,0.0,0.0,0.0,0.0
1626894336873309784,82604,1626894336873309784,imu,43.5,-21.75,-5.5625,0.0,0.0,0.0,0.0,0.0,0.0,0.0,0.0,0.0
1626894336881185096,82605,1626894336881185096,imu,43.5,-21.75,-5.5625,0.0,0.0,0.0,0.0,0.0,0.0,0.0,0.0,0.0
1626894336891138794,82606,1626894336891138794,imu,43.1875,-21.75,-6.5,0.0,0.0,0.0,0.0,0.0,0.0,0.0,0.0,0.0
1626894336903518377,82607,1626894336903518377,imu,43.1875,-21.75,-6.5,0.0,0.0,0.0,0.0,0.0,0.0,0.0,0.0,0.0
1626894336913434940,82608,1626894336913434940,imu,43.1875,-21.75,-6.5,0.0,0.0,0.0,0.0,0.0,0.0,0.0,0.0,0.0
1626894336923740409,82609,1626894336923740409,imu,43.1875,-21.75,-6.5,0.0,0.0,0.0,0.0,0.0,0.0,0.0,0.0,0.0
1626894336931140721,82610,1626894336931140721,imu,43.1875,-21.75,-6.5,0.0,0.0,0.0,0.0,0.0,0.0,0.0,0.0,0.0
1626894336943658013,82611,1626894336943658013,imu,42.875,-21.75,-6.0625,0.0,0.0,0.0,0.0,0.0,0.0,0.0,0.0,0.0
1626894336953012804,82612,1626894336953012804,imu,42.875,-21.75,-6.0625,0.0,0.0,0.0,0.0,0.0,0.0,0.0,0.0,0.0
1626894336963407336,82613,1626894336963407336,imu,42.875,-21.75,-6.0625,0.0,0.0,0.0,0.0,0.0,0.0,0.0,0.0,0.0
1626894336976257232,82614,1626894336976257232,imu,42.875,-21.75,-6.0625,0.0,0.0,0.0,0.0,0.0,0.0,0.0,0.0,0.0
1626894336984847232,82615,1626894336984847232,imu,42.875,-21.75,-6.0625,0.0,0.0,0.0,0.0,0.0,0.0,0.0,0.0,0.0
1626894336991183898,82616,1626894336991183898,imu,43.25,-21.6875,-6.875,0.0,0.0,0.0,0.0,0.0,0.0,0.0,0.0,0.0
1626894337004824002,82617,1626894337004824002,imu,43.25,-21.6875,-6.875,0.0,0.0,0.0,0.0,0.0,0.0,0.0,0.0,0.0
1626894337014016242,82618,1626894337014016242,imu,43.25,-21.6875,-6.875,0.0,0.0,0.0,0.0,0.0,0.0,0.0,0.0,0.0
1626894337026320200,82619,1626894337026320200,imu,43.25,-21.6875,-6.875,0.0,0.0,0.0,0.0,0.0,0.0,0.0,0.0,0.0
1626894337032224784,82620,1626894337032224784,imu,43.25,-21.6875,-6.875,0.0,0.0,0.0,0.0,0.0,0.0,0.0,0.0,0.0
1626894337041327961,82621,1626894337041327961,imu,42.0625,-22.0625,-6.375,0.0,0.0,0.0,0.0,0.0,0.0,0.0,0.0,0.0
1626894337053012909,82622,1626894337053012909,imu,42.0625,-22.0625,-6.375,0.0,0.0,0.0,0.0,0.0,0.0,0.0,0.0,0.0
1626894337063666138,82623,1626894337063666138,imu,42.0625,-22.0625,-6.375,0.0,0.0,0.0,0.0,0.0,0.0,0.0,0.0,0.0
1626894337073759523,82624,1626894337073759523,imu,42.0625,-22.0625,-6.375,0.0,0.0,0.0,0.0,0.0,0.0,0.0,0.0,0.0
1626894337081183534,82625,1626894337081183534,imu,42.0625,-22.0625,-6.375,0.0,0.0,0.0,0.0,0.0,0.0,0.0,0.0,0.0
1626894337091759784,82626,1626894337091759784,imu,42.875,-20.1875,-6.0625,0.0,0.0,0.0,0.0,0.0,0.0,0.0,0.0,0.0
1626894337103727544,82627,1626894337103727544,imu,42.875,-20.1875,-6.0625,0.0,0.0,0.0,0.0,0.0,0.0,0.0,0.0,0.0
1626894337113651554,82628,1626894337113651554,imu,42.875,-20.1875,-6.0625,0.0,0.0,0.0,0.0,0.0,0.0,0.0,0.0,0.0
1626894337123926242,82629,1626894337123926242,imu,42.875,-20.1875,-6.0625,0.0,0.0,0.0,0.0,0.0,0.0,0.0,0.0,0.0
1626894337131111138,82630,1626894337131111138,imu,42.875,-20.1875,-6.0625,0.0,0.0,0.0,0.0,0.0,0.0,0.0,0.0,0.0
1626894337141106138,82631,1626894337141106138,imu,43.25,-20.1875,-6.375,0.0,0.0,0.0,0.0,0.0,0.0,0.0,0.0,0.0
1626894337153270565,82632,1626894337153270565,imu,43.25,-20.1875,-6.375,0.0,0.0,0.0,0.0,0.0,0.0,0.0,0.0,0.0
1626894337163768846,82633,1626894337163768846,imu,43.25,-20.1875,-6.375,0.0,0.0,0.0,0.0,0.0,0.0,0.0,0.0,0.0
1626894337174609731,82634,1626894337174609731,imu,43.25,-20.1875,-6.375,0.0,0.0,0.0,0.0,0.0,0.0,0.0,0.0,0.0
1626894337181151867,82635,1626894337181151867,imu,43.25,-20.1875,-6.375,0.0,0.0,0.0,0.0,0.0,0.0,0.0,0.0,0.0
1626894337191170044,82636,1626894337191170044,imu,43.6875,-20.5625,-8.0625,0.0,0.0,0.0,0.0,0.0,0.0,0.0,0.0,0.0
1626894337203812179,82637,1626894337203812179,imu,43.6875,-20.5625,-8.0625,0.0,0.0,0.0,0.0,0.0,0.0,0.0,0.0,0.0
1626894337213645565,82638,1626894337213645565,imu,43.6875,-20.5625,-8.0625,0.0,0.0,0.0,0.0,0.0,0.0,0.0,0.0,0.0
1626894337223602700,82639,1626894337223602700,imu,43.6875,-20.5625,-8.0625,0.0,0.0,0.0,0.0,0.0,0.0,0.0,0.0,0.0
1626894337231186450,82640,1626894337231186450,imu,43.6875,-20.5625,-8.0625,0.0,0.0,0.0,0.0,0.0,0.0,0.0,0.0,0.0
1626894337241178273,82641,1626894337241178273,imu,42.875,-20.1875,-8.0625,0.0,0.0,0.0,0.0,0.0,0.0,0.0,0.0,0.0
1626894337255108846,82642,1626894337255108846,imu,42.875,-20.1875,-8.0625,0.0,0.0,0.0,0.0,0.0,0.0,0.0,0.0,0.0
1626894337264352804,82643,1626894337264352804,imu,42.875,-20.1875,-8.0625,0.0,0.0,0.0,0.0,0.0,0.0,0.0,0.0,0.0
1626894337274999471,82644,1626894337274999471,imu,42.875,-20.1875,-8.0625,0.0,0.0,0.0,0.0,0.0,0.0,0.0,0.0,0.0
1626894337281438169,82645,1626894337281438169,imu,42.875,-20.1875,-8.0625,0.0,0.0,0.0,0.0,0.0,0.0,0.0,0.0,0.0
1626894337291218950,82646,1626894337291218950,imu,43.6875,-21.0,-8.375,0.0,0.0,0.0,0.0,0.0,0.0,0.0,0.0,0.0
1626894337304107700,82647,1626894337304107700,imu,43.6875,-21.0,-8.375,0.0,0.0,0.0,0.0,0.0,0.0,0.0,0.0,0.0
1626894337313729471,82648,1626894337313729471,imu,43.6875,-21.0,-8.375,0.0,0.0,0.0,0.0,0.0,0.0,0.0,0.0,0.0
1626894337323698169,82649,1626894337323698169,imu,43.6875,-21.0,-8.375,0.0,0.0,0.0,0.0,0.0,0.0,0.0,0.0,0.0
1626894337331228117,82650,1626894337331228117,imu,43.6875,-21.0,-8.375,0.0,0.0,0.0,0.0,0.0,0.0,0.0,0.0,0.0
1626894337341184731,82651,1626894337341184731,imu,43.0,-19.5,-9.6875,0.0,0.0,0.0,0.0,0.0,0.0,0.0,0.0,0.0
1626894337353167908,82652,1626894337353167908,imu,43.0,-19.5,-9.6875,0.0,0.0,0.0,0.0,0.0,0.0,0.0,0.0,0.0
1626894337363846502,82653,1626894337363846502,imu,43.0,-19.5,-9.6875,0.0,0.0,0.0,0.0,0.0,0.0,0.0,0.0,0.0
1626894337373978221,82654,1626894337373978221,imu,43.0,-19.5,-9.6875,0.0,0.0,0.0,0.0,0.0,0.0,0.0,0.0,0.0
1626894337381645721,82655,1626894337381645721,imu,43.0,-19.5,-9.6875,0.0,0.0,0.0,0.0,0.0,0.0,0.0,0.0,0.0
1626894337391169731,82656,1626894337391169731,imu,43.375,-19.5,-11.6875,0.0,0.0,0.0,0.0,0.0,0.0,0.0,0.0,0.0
1626894337403855617,82657,1626894337403855617,imu,43.375,-19.5,-11.6875,0.0,0.0,0.0,0.0,0.0,0.0,0.0,0.0,0.0
1626894337413729783,82658,1626894337413729783,imu,43.375,-19.5,-11.6875,0.0,0.0,0.0,0.0,0.0,0.0,0.0,0.0,0.0
1626894337423703117,82659,1626894337423703117,imu,43.375,-19.5,-11.6875,0.0,0.0,0.0,0.0,0.0,0.0,0.0,0.0,0.0
1626894337432489940,82660,1626894337432489940,imu,43.375,-19.5,-11.6875,0.0,0.0,0.0,0.0,0.0,0.0,0.0,0.0,0.0
1626894337443533690,82661,1626894337443533690,imu,43.25,-18.6875,-11.25,0.0,0.0,0.0,0.0,0.0,0.0,0.0,0.0,0.0
1626894337453442127,82662,1626894337453442127,imu,43.25,-18.6875,-11.25,0.0,0.0,0.0,0.0,0.0,0.0,0.0,0.0,0.0
1626894337464044836,82663,1626894337464044836,imu,43.25,-18.6875,-11.25,0.0,0.0,0.0,0.0,0.0,0.0,0.0,0.0,0.0
1626894337475191658,82664,1626894337475191658,imu,43.25,-18.6875,-11.25,0.0,0.0,0.0,0.0,0.0,0.0,0.0,0.0,0.0
1626894337481038690,82665,1626894337481038690,imu,43.25,-18.6875,-11.25,0.0,0.0,0.0,0.0,0.0,0.0,0.0,0.0,0.0
1626894337491118690,82666,1626894337491118690,imu,43.5625,-18.25,-12.0625,0.0,0.0,0.0,0.0,0.0,0.0,0.0,0.0,0.0
1626894337504170565,82667,1626894337504170565,imu,43.5625,-18.25,-12.0625,0.0,0.0,0.0,0.0,0.0,0.0,0.0,0.0,0.0
1626894337513819575,82668,1626894337513819575,imu,43.5625,-18.25,-12.0625,0.0,0.0,0.0,0.0,0.0,0.0,0.0,0.0,0.0
1626894337523877179,82669,1626894337523877179,imu,43.5625,-18.25,-12.0625,0.0,0.0,0.0,0.0,0.0,0.0,0.0,0.0,0.0
1626894337531106554,82670,1626894337531106554,imu,43.5625,-18.25,-12.0625,0.0,0.0,0.0,0.0,0.0,0.0,0.0,0.0,0.0
1626894337541190929,82671,1626894337541190929,imu,43.25,-19.0625,-12.5,0.0,0.0,0.0,0.0,0.0,0.0,0.0,0.0,0.0
1626894337554938846,82672,1626894337554938846,imu,43.25,-19.0625,-12.5,0.0,0.0,0.0,0.0,0.0,0.0,0.0,0.0,0.0
1626894337564662492,82673,1626894337564662492,imu,43.25,-19.0625,-12.5,0.0,0.0,0.0,0.0,0.0,0.0,0.0,0.0,0.0
1626894337573970929,82674,1626894337573970929,imu,43.25,-19.0625,-12.5,0.0,0.0,0.0,0.0,0.0,0.0,0.0,0.0,0.0
1626894337581191242,82675,1626894337581191242,imu,43.25,-19.0625,-12.5,0.0,0.0,0.0,0.0,0.0,0.0,0.0,0.0,0.0
1626894337591870044,82676,1626894337591870044,imu,44.0625,-18.0,-14.0625,0.0,0.0,0.0,0.0,0.0,0.0,0.0,0.0,0.0
1626894337603937596,82677,1626894337603937596,imu,44.0625,-18.0,-14.0625,0.0,0.0,0.0,0.0,0.0,0.0,0.0,0.0,0.0
1626894337614793221,82678,1626894337614793221,imu,44.0625,-18.0,-14.0625,0.0,0.0,0.0,0.0,0.0,0.0,0.0,0.0,0.0
1626894337623924210,82679,1626894337623924210,imu,44.0625,-18.0,-14.0625,0.0,0.0,0.0,0.0,0.0,0.0,0.0,0.0,0.0
1626894337631157544,82680,1626894337631157544,imu,44.0625,-18.0,-14.0625,0.0,0.0,0.0,0.0,0.0,0.0,0.0,0.0,0.0
1626894337641973533,82681,1626894337641973533,imu,42.5625,-17.5625,-15.25,0.0,0.0,0.0,0.0,0.0,0.0,0.0,0.0,0.0
1626894337653994367,82682,1626894337653994367,imu,42.5625,-17.5625,-15.25,0.0,0.0,0.0,0.0,0.0,0.0,0.0,0.0,0.0
1626894337664401606,82683,1626894337664401606,imu,42.5625,-17.5625,-15.25,0.0,0.0,0.0,0.0,0.0,0.0,0.0,0.0,0.0
1626894337674333898,82684,1626894337674333898,imu,42.5625,-17.5625,-15.25,0.0,0.0,0.0,0.0,0.0,0.0,0.0,0.0,0.0
1626894337681268481,82685,1626894337681268481,imu,42.5625,-17.5625,-15.25,0.0,0.0,0.0,0.0,0.0,0.0,0.0,0.0,0.0
1626894337693068742,82686,1626894337693068742,imu,42.875,-15.6875,-15.25,0.0,0.0,0.0,0.0,0.0,0.0,0.0,0.0,0.0
1626894337705030356,82687,1626894337705030356,imu,42.875,-15.6875,-15.25,0.0,0.0,0.0,0.0,0.0,0.0,0.0,0.0,0.0
1626894337714428377,82688,1626894337714428377,imu,42.875,-15.6875,-15.25,0.0,0.0,0.0,0.0,0.0,0.0,0.0,0.0,0.0
1626894337724125304,82689,1626894337724125304,imu,42.875,-15.6875,-15.25,0.0,0.0,0.0,0.0,0.0,0.0,0.0,0.0,0.0
1626894337731266763,82690,1626894337731266763,imu,42.875,-15.6875,-15.25,0.0,0.0,0.0,0.0,0.0,0.0,0.0,0.0,0.0
1626894337741775929,82691,1626894337741775929,imu,42.5625,-15.25,-15.75,0.0,0.0,0.0,0.0,0.0,0.0,0.0,0.0,0.0
1626894337754891762,82692,1626894337754891762,imu,42.5625,-15.25,-15.75,0.0,0.0,0.0,0.0,0.0,0.0,0.0,0.0,0.0
1626894337764836085,82693,1626894337764836085,imu,42.5625,-15.25,-15.75,0.0,0.0,0.0,0.0,0.0,0.0,0.0,0.0,0.0
1626894337776431137,82694,1626894337776431137,imu,42.5625,-15.25,-15.75,0.0,0.0,0.0,0.0,0.0,0.0,0.0,0.0,0.0
1626894337782274783,82695,1626894337782274783,imu,42.5625,-15.25,-15.75,0.0,0.0,0.0,0.0,0.0,0.0,0.0,0.0,0.0
1626894337791697231,82696,1626894337791697231,imu,42.6875,-13.75,-16.875,0.0,0.0,0.0,0.0,0.0,0.0,0.0,0.0,0.0
1626894337803946919,82697,1626894337803946919,imu,42.6875,-13.75,-16.875,0.0,0.0,0.0,0.0,0.0,0.0,0.0,0.0,0.0
1626894337814306762,82698,1626894337814306762,imu,42.6875,-13.75,-16.875,0.0,0.0,0.0,0.0,0.0,0.0,0.0,0.0,0.0
1626894337826759940,82699,1626894337826759940,imu,42.6875,-13.75,-16.875,0.0,0.0,0.0,0.0,0.0,0.0,0.0,0.0,0.0
1626894337832639835,82700,1626894337832639835,imu,42.6875,-13.75,-16.875,0.0,0.0,0.0,0.0,0.0,0.0,0.0,0.0,0.0
1626894337841115512,82701,1626894337841115512,imu,43.75,-12.25,-16.875,0.0,0.0,0.0,0.0,0.0,0.0,0.0,0.0,0.0
1626894337854967700,82702,1626894337854967700,imu,43.75,-12.25,-16.875,0.0,0.0,0.0,0.0,0.0,0.0,0.0,0.0,0.0
1626894337864379106,82703,1626894337864379106,imu,43.75,-12.25,-16.875,0.0,0.0,0.0,0.0,0.0,0.0,0.0,0.0,0.0
1626894337876180825,82704,1626894337876180825,imu,43.75,-12.25,-16.875,0.0,0.0,0.0,0.0,0.0,0.0,0.0,0.0,0.0
1626894337882331398,82705,1626894337882331398,imu,43.75,-12.25,-16.875,0.0,0.0,0.0,0.0,0.0,0.0,0.0,0.0,0.0
1626894337891173533,82706,1626894337891173533,imu,44.25,-11.875,-17.375,0.0,0.0,0.0,0.0,0.0,0.0,0.0,0.0,0.0
1626894337904453065,82707,1626894337904453065,imu,44.25,-11.875,-17.375,0.0,0.0,0.0,0.0,0.0,0.0,0.0,0.0,0.0
1626894337914472127,82708,1626894337914472127,imu,44.25,-11.875,-17.375,0.0,0.0,0.0,0.0,0.0,0.0,0.0,0.0,0.0
1626894337925031242,82709,1626894337925031242,imu,44.25,-11.875,-17.375,0.0,0.0,0.0,0.0,0.0,0.0,0.0,0.0,0.0
1626894337934315356,82710,1626894337934315356,imu,44.25,-11.875,-17.375,0.0,0.0,0.0,0.0,0.0,0.0,0.0,0.0,0.0
1626894337941242023,82711,1626894337941242023,imu,43.5625,-10.375,-19.75,0.0,0.0,0.0,0.0,0.0,0.0,0.0,0.0,0.0
1626894337953851919,82712,1626894337953851919,imu,43.5625,-10.375,-19.75,0.0,0.0,0.0,0.0,0.0,0.0,0.0,0.0,0.0
1626894337964339731,82713,1626894337964339731,imu,43.5625,-10.375,-19.75,0.0,0.0,0.0,0.0,0.0,0.0,0.0,0.0,0.0
1626894337975030512,82714,1626894337975030512,imu,43.5625,-10.375,-19.75,0.0,0.0,0.0,0.0,0.0,0.0,0.0,0.0,0.0
1626894337981565825,82715,1626894337981565825,imu,43.5625,-10.375,-19.75,0.0,0.0,0.0,0.0,0.0,0.0,0.0,0.0,0.0
1626894337991132231,82716,1626894337991132231,imu,42.5625,-11.25,-19.0,0.0,0.0,0.0,0.0,0.0,0.0,0.0,0.0,0.0
1626894338004908273,82717,1626894338004908273,imu,42.5625,-11.25,-19.0,0.0,0.0,0.0,0.0,0.0,0.0,0.0,0.0,0.0
1626894338014572700,82718,1626894338014572700,imu,42.5625,-11.25,-19.0,0.0,0.0,0.0,0.0,0.0,0.0,0.0,0.0,0.0
1626894338027284419,82719,1626894338027284419,imu,42.5625,-11.25,-19.0,0.0,0.0,0.0,0.0,0.0,0.0,0.0,0.0,0.0
1626894338033692179,82720,1626894338033692179,imu,42.5625,-11.25,-19.0,0.0,0.0,0.0,0.0,0.0,0.0,0.0,0.0,0.0
1626894338041171294,82721,1626894338041171294,imu,43.0,-10.5,-18.875,0.0,0.0,0.0,0.0,0.0,0.0,0.0,0.0,0.0
1626894338053925617,82722,1626894338053925617,imu,43.0,-10.5,-18.875,0.0,0.0,0.0,0.0,0.0,0.0,0.0,0.0,0.0
1626894338064411189,82723,1626894338064411189,imu,43.0,-10.5,-18.875,0.0,0.0,0.0,0.0,0.0,0.0,0.0,0.0,0.0
1626894338075058064,82724,1626894338075058064,imu,43.0,-10.5,-18.875,0.0,0.0,0.0,0.0,0.0,0.0,0.0,0.0,0.0
1626894338082230721,82725,1626894338082230721,imu,43.0,-10.5,-18.875,0.0,0.0,0.0,0.0,0.0,0.0,0.0,0.0,0.0
1626894338091151242,82726,1626894338091151242,imu,43.5,-9.6875,-19.375,0.0,0.0,0.0,0.0,0.0,0.0,0.0,0.0,0.0
1626894338104239887,82727,1626894338104239887,imu,43.5,-9.6875,-19.375,0.0,0.0,0.0,0.0,0.0,0.0,0.0,0.0,0.0
1626894338114775721,82728,1626894338114775721,imu,43.5,-9.6875,-19.375,0.0,0.0,0.0,0.0,0.0,0.0,0.0,0.0,0.0
1626894338124404054,82729,1626894338124404054,imu,43.5,-9.6875,-19.375,0.0,0.0,0.0,0.0,0.0,0.0,0.0,0.0,0.0
1626894338131122439,82730,1626894338131122439,imu,43.5,-9.6875,-19.375,0.0,0.0,0.0,0.0,0.0,0.0,0.0,0.0,0.0
1626894338141609783,82731,1626894338141609783,imu,42.6875,-8.5,-19.375,0.0,0.0,0.0,0.0,0.0,0.0,0.0,0.0,0.0
1626894338154028117,82732,1626894338154028117,imu,42.6875,-8.5,-19.375,0.0,0.0,0.0,0.0,0.0,0.0,0.0,0.0,0.0
1626894338164380773,82733,1626894338164380773,imu,42.6875,-8.5,-19.375,0.0,0.0,0.0,0.0,0.0,0.0,0.0,0.0,0.0
1626894338174785877,82734,1626894338174785877,imu,42.6875,-8.5,-19.375,0.0,0.0,0.0,0.0,0.0,0.0,0.0,0.0,0.0
1626894338181123950,82735,1626894338181123950,imu,42.6875,-8.5,-19.375,0.0,0.0,0.0,0.0,0.0,0.0,0.0,0.0,0.0
1626894338191132491,82736,1626894338191132491,imu,42.6875,-7.75,-19.5,0.0,0.0,0.0,0.0,0.0,0.0,0.0,0.0,0.0
1626894338204098481,82737,1626894338204098481,imu,42.6875,-7.75,-19.5,0.0,0.0,0.0,0.0,0.0,0.0,0.0,0.0,0.0
1626894338214407023,82738,1626894338214407023,imu,42.6875,-7.75,-19.5,0.0,0.0,0.0,0.0,0.0,0.0,0.0,0.0,0.0
1626894338224571033,82739,1626894338224571033,imu,42.6875,-7.75,-19.5,0.0,0.0,0.0,0.0,0.0,0.0,0.0,0.0,0.0
1626894338231315356,82740,1626894338231315356,imu,42.6875,-7.75,-19.5,0.0,0.0,0.0,0.0,0.0,0.0,0.0,0.0,0.0
1626894338241128846,82741,1626894338241128846,imu,42.75,-7.6875,-20.6875,0.0,0.0,0.0,0.0,0.0,0.0,0.0,0.0,0.0
1626894338253829106,82742,1626894338253829106,imu,42.75,-7.6875,-20.6875,0.0,0.0,0.0,0.0,0.0,0.0,0.0,0.0,0.0
1626894338264371606,82743,1626894338264371606,imu,42.75,-7.6875,-20.6875,0.0,0.0,0.0,0.0,0.0,0.0,0.0,0.0,0.0
1626894338276223950,82744,1626894338276223950,imu,42.75,-7.6875,-20.6875,0.0,0.0,0.0,0.0,0.0,0.0,0.0,0.0,0.0
1626894338283835460,82745,1626894338283835460,imu,42.75,-7.6875,-20.6875,0.0,0.0,0.0,0.0,0.0,0.0,0.0,0.0,0.0
1626894338291152908,82746,1626894338291152908,imu,43.875,-6.5625,-20.6875,0.0,0.0,0.0,0.0,0.0,0.0,0.0,0.0,0.0
1626894338304135356,82747,1626894338304135356,imu,43.875,-6.5625,-20.6875,0.0,0.0,0.0,0.0,0.0,0.0,0.0,0.0,0.0
1626894338314190825,82748,1626894338314190825,imu,43.875,-6.5625,-20.6875,0.0,0.0,0.0,0.0,0.0,0.0,0.0,0.0,0.0
1626894338324703585,82749,1626894338324703585,imu,43.875,-6.5625,-20.6875,0.0,0.0,0.0,0.0,0.0,0.0,0.0,0.0,0.0
1626894338331168481,82750,1626894338331168481,imu,43.875,-6.5625,-20.6875,0.0,0.0,0.0,0.0,0.0,0.0,0.0,0.0,0.0
1626894338341170721,82751,1626894338341170721,imu,42.75,-4.75,-20.25,0.0,0.0,0.0,0.0,0.0,0.0,0.0,0.0,0.0
1626894338354019419,82752,1626894338354019419,imu,42.75,-4.75,-20.25,0.0,0.0,0.0,0.0,0.0,0.0,0.0,0.0,0.0
1626894338364400929,82753,1626894338364400929,imu,42.75,-4.75,-20.25,0.0,0.0,0.0,0.0,0.0,0.0,0.0,0.0,0.0
1626894338374695669,82754,1626894338374695669,imu,42.75,-4.75,-20.25,0.0,0.0,0.0,0.0,0.0,0.0,0.0,0.0,0.0
1626894338381350721,82755,1626894338381350721,imu,42.75,-4.75,-20.25,0.0,0.0,0.0,0.0,0.0,0.0,0.0,0.0,0.0
1626894338391157752,82756,1626894338391157752,imu,43.1875,-4.75,-21.0,0.0,0.0,0.0,0.0,0.0,0.0,0.0,0.0,0.0
1626894338404403689,82757,1626894338404403689,imu,43.1875,-4.75,-21.0,0.0,0.0,0.0,0.0,0.0,0.0,0.0,0.0,0.0
1626894338414405773,82758,1626894338414405773,imu,43.1875,-4.75,-21.0,0.0,0.0,0.0,0.0,0.0,0.0,0.0,0.0,0.0
1626894338424960981,82759,1626894338424960981,imu,43.1875,-4.75,-21.0,0.0,0.0,0.0,0.0,0.0,0.0,0.0,0.0,0.0
1626894338431330148,82760,1626894338431330148,imu,43.1875,-4.75,-21.0,0.0,0.0,0.0,0.0,0.0,0.0,0.0,0.0,0.0
1626894338442574366,82761,1626894338442574366,imu,42.375,-4.75,-21.875,0.0,0.0,0.0,0.0,0.0,0.0,0.0,0.0,0.0
1626894338454055616,82762,1626894338454055616,imu,42.375,-4.75,-21.875,0.0,0.0,0.0,0.0,0.0,0.0,0.0,0.0,0.0
1626894338464292648,82763,1626894338464292648,imu,42.375,-4.75,-21.875,0.0,0.0,0.0,0.0,0.0,0.0,0.0,0.0,0.0
1626894338475054679,82764,1626894338475054679,imu,42.375,-4.75,-21.875,0.0,0.0,0.0,0.0,0.0,0.0,0.0,0.0,0.0
1626894338481687752,82765,1626894338481687752,imu,42.375,-4.75,-21.875,0.0,0.0,0.0,0.0,0.0,0.0,0.0,0.0,0.0
1626894338491789991,82766,1626894338491789991,imu,42.75,-4.75,-21.5,0.0,0.0,0.0,0.0,0.0,0.0,0.0,0.0,0.0
1626894338504369835,82767,1626894338504369835,imu,42.75,-4.75,-21.5,0.0,0.0,0.0,0.0,0.0,0.0,0.0,0.0,0.0
1626894338514323429,82768,1626894338514323429,imu,42.75,-4.75,-21.5,0.0,0.0,0.0,0.0,0.0,0.0,0.0,0.0,0.0
1626894338524491346,82769,1626894338524491346,imu,42.75,-4.75,-21.5,0.0,0.0,0.0,0.0,0.0,0.0,0.0,0.0,0.0
1626894338531369002,82770,1626894338531369002,imu,42.75,-4.75,-21.5,0.0,0.0,0.0,0.0,0.0,0.0,0.0,0.0,0.0
1626894338541148637,82771,1626894338541148637,imu,42.0625,-4.375,-21.0625,0.0,0.0,0.0,0.0,0.0,0.0,0.0,0.0,0.0
1626894338553978273,82772,1626894338553978273,imu,42.0625,-4.375,-21.0625,0.0,0.0,0.0,0.0,0.0,0.0,0.0,0.0,0.0
1626894338564269002,82773,1626894338564269002,imu,42.0625,-4.375,-21.0625,0.0,0.0,0.0,0.0,0.0,0.0,0.0,0.0,0.0
1626894338576709731,82774,1626894338576709731,imu,42.0625,-4.375,-21.0625,0.0,0.0,0.0,0.0,0.0,0.0,0.0,0.0,0.0
1626894338583595512,82775,1626894338583595512,imu,42.0625,-4.375,-21.0625,0.0,0.0,0.0,0.0,0.0,0.0,0.0,0.0,0.0
1626894338591140668,82776,1626894338591140668,imu,42.0625,-4.75,-22.25,0.0,0.0,0.0,0.0,0.0,0.0,0.0,0.0,0.0
1626894338604233429,82777,1626894338604233429,imu,42.0625,-4.75,-22.25,0.0,0.0,0.0,0.0,0.0,0.0,0.0,0.0,0.0
1626894338614661658,82778,1626894338614661658,imu,42.0625,-4.75,-22.25,0.0,0.0,0.0,0.0,0.0,0.0,0.0,0.0,0.0
1626894338624469106,82779,1626894338624469106,imu,42.0625,-4.75,-22.25,0.0,0.0,0.0,0.0,0.0,0.0,0.0,0.0,0.0
1626894338631071189,82780,1626894338631071189,imu,42.0625,-4.75,-22.25,0.0,0.0,0.0,0.0,0.0,0.0,0.0,0.0,0.0
1626894338641139679,82781,1626894338641139679,imu,42.75,-3.5625,-19.875,0.0,0.0,0.0,0.0,0.0,0.0,0.0,0.0,0.0
1626894338653990564,82782,1626894338653990564,imu,42.75,-3.5625,-19.875,0.0,0.0,0.0,0.0,0.0,0.0,0.0,0.0,0.0
1626894338664375616,82783,1626894338664375616,imu,42.75,-3.5625,-19.875,0.0,0.0,0.0,0.0,0.0,0.0,0.0,0.0,0.0
1626894338675273481,82784,1626894338675273481,imu,42.75,-3.5625,-19.875,0.0,0.0,0.0,0.0,0.0,0.0,0.0,0.0,0.0
1626894338681219575,82785,1626894338681219575,imu,42.75,-3.5625,-19.875,0.0,0.0,0.0,0.0,0.0,0.0,0.0,0.0,0.0
1626894338691125356,82786,1626894338691125356,imu,42.75,-3.25,-21.875,0.0,0.0,0.0,0.0,0.0,0.0,0.0,0.0,0.0
1626894338704157908,82787,1626894338704157908,imu,42.75,-3.25,-21.875,0.0,0.0,0.0,0.0,0.0,0.0,0.0,0.0,0.0
1626894338714351554,82788,1626894338714351554,imu,42.75,-3.25,-21.875,0.0,0.0,0.0,0.0,0.0,0.0,0.0,0.0,0.0
1626894338724526554,82789,1626894338724526554,imu,42.75,-3.25,-21.875,0.0,0.0,0.0,0.0,0.0,0.0,0.0,0.0,0.0
1626894338731137179,82790,1626894338731137179,imu,42.75,-3.25,-21.875,0.0,0.0,0.0,0.0,0.0,0.0,0.0,0.0,0.0
1626894338741138898,82791,1626894338741138898,imu,43.0625,-3.5625,-21.875,0.0,0.0,0.0,0.0,0.0,0.0,0.0,0.0,0.0
1626894338754189679,82792,1626894338754189679,imu,43.0625,-3.5625,-21.875,0.0,0.0,0.0,0.0,0.0,0.0,0.0,0.0,0.0
1626894338764213689,82793,1626894338764213689,imu,43.0625,-3.5625,-21.875,0.0,0.0,0.0,0.0,0.0,0.0,0.0,0.0,0.0
1626894338774401658,82794,1626894338774401658,imu,43.0625,-3.5625,-21.875,0.0,0.0,0.0,0.0,0.0,0.0,0.0,0.0,0.0
1626894338781192960,82795,1626894338781192960,imu,43.0625,-3.5625,-21.875,0.0,0.0,0.0,0.0,0.0,0.0,0.0,0.0,0.0
1626894338791126866,82796,1626894338791126866,imu,42.0,-2.5,-21.5,0.0,0.0,0.0,0.0,0.0,0.0,0.0,0.0,0.0
1626894338804349991,82797,1626894338804349991,imu,42.0,-2.5,-21.5,0.0,0.0,0.0,0.0,0.0,0.0,0.0,0.0,0.0
1626894338814302960,82798,1626894338814302960,imu,42.0,-2.5,-21.5,0.0,0.0,0.0,0.0,0.0,0.0,0.0,0.0,0.0
1626894338824520512,82799,1626894338824520512,imu,42.0,-2.5,-21.5,0.0,0.0,0.0,0.0,0.0,0.0,0.0,0.0,0.0
1626894338831393741,82800,1626894338831393741,imu,42.0,-2.5,-21.5,0.0,0.0,0.0,0.0,0.0,0.0,0.0,0.0,0.0
1626894338841641606,82801,1626894338841641606,imu,42.6875,-2.875,-21.875,0.0,0.0,0.0,0.0,0.0,0.0,0.0,0.0,0.0
1626894338853810304,82802,1626894338853810304,imu,42.6875,-2.875,-21.875,0.0,0.0,0.0,0.0,0.0,0.0,0.0,0.0,0.0
1626894338864449887,82803,1626894338864449887,imu,42.6875,-2.875,-21.875,0.0,0.0,0.0,0.0,0.0,0.0,0.0,0.0,0.0
1626894338875145825,82804,1626894338875145825,imu,42.6875,-2.875,-21.875,0.0,0.0,0.0,0.0,0.0,0.0,0.0,0.0,0.0
1626894338881740408,82805,1626894338881740408,imu,42.6875,-2.875,-21.875,0.0,0.0,0.0,0.0,0.0,0.0,0.0,0.0,0.0
1626894338891137491,82806,1626894338891137491,imu,42.25,-1.75,-21.5,0.0,0.0,0.0,0.0,0.0,0.0,0.0,0.0,0.0
1626894338904238429,82807,1626894338904238429,imu,42.25,-1.75,-21.5,0.0,0.0,0.0,0.0,0.0,0.0,0.0,0.0,0.0
1626894338914176710,82808,1626894338914176710,imu,42.25,-1.75,-21.5,0.0,0.0,0.0,0.0,0.0,0.0,0.0,0.0,0.0
1626894338924468897,82809,1626894338924468897,imu,42.25,-1.75,-21.5,0.0,0.0,0.0,0.0,0.0,0.0,0.0,0.0,0.0
1626894338931171137,82810,1626894338931171137,imu,42.25,-1.75,-21.5,0.0,0.0,0.0,0.0,0.0,0.0,0.0,0.0,0.0
1626894338941182700,82811,1626894338941182700,imu,42.25,-1.0,-21.0625,0.0,0.0,0.0,0.0,0.0,0.0,0.0,0.0,0.0
1626894338953887127,82812,1626894338953887127,imu,42.25,-1.0,-21.0625,0.0,0.0,0.0,0.0,0.0,0.0,0.0,0.0,0.0
1626894338964402700,82813,1626894338964402700,imu,42.25,-1.0,-21.0625,0.0,0.0,0.0,0.0,0.0,0.0,0.0,0.0,0.0
1626894338974449158,82814,1626894338974449158,imu,42.25,-1.0,-21.0625,0.0,0.0,0.0,0.0,0.0,0.0,0.0,0.0,0.0
1626894338981098272,82815,1626894338981098272,imu,42.25,-1.0,-21.0625,0.0,0.0,0.0,0.0,0.0,0.0,0.0,0.0,0.0
1626894338991667075,82816,1626894338991667075,imu,42.6875,0.0625,-20.25,0.0,0.0,0.0,0.0,0.0,0.0,0.0,0.0,0.0
1626894339004386085,82817,1626894339004386085,imu,42.6875,0.0625,-20.25,0.0,0.0,0.0,0.0,0.0,0.0,0.0,0.0,0.0
1626894339014597700,82818,1626894339014597700,imu,42.6875,0.0625,-20.25,0.0,0.0,0.0,0.0,0.0,0.0,0.0,0.0,0.0
1626894339024396554,82819,1626894339024396554,imu,42.6875,0.0625,-20.25,0.0,0.0,0.0,0.0,0.0,0.0,0.0,0.0,0.0
1626894339031222127,82820,1626894339031222127,imu,42.6875,0.0625,-20.25,0.0,0.0,0.0,0.0,0.0,0.0,0.0,0.0,0.0
1626894339041115043,82821,1626894339041115043,imu,42.75,1.1875,-21.5,0.0,0.0,0.0,0.0,0.0,0.0,0.0,0.0,0.0
1626894339054472804,82822,1626894339054472804,imu,42.75,1.1875,-21.5,0.0,0.0,0.0,0.0,0.0,0.0,0.0,0.0,0.0
1626894339064312543,82823,1626894339064312543,imu,42.75,1.1875,-21.5,0.0,0.0,0.0,0.0,0.0,0.0,0.0,0.0,0.0
1626894339074636606,82824,1626894339074636606,imu,42.75,1.1875,-21.5,0.0,0.0,0.0,0.0,0.0,0.0,0.0,0.0,0.0
1626894339081388689,82825,1626894339081388689,imu,42.75,1.1875,-21.5,0.0,0.0,0.0,0.0,0.0,0.0,0.0,0.0,0.0
1626894339091202022,82826,1626894339091202022,imu,42.75,0.875,-21.5,0.0,0.0,0.0,0.0,0.0,0.0,0.0,0.0,0.0
1626894339105283377,82827,1626894339105283377,imu,42.75,0.875,-21.5,0.0,0.0,0.0,0.0,0.0,0.0,0.0,0.0,0.0
1626894339114526397,82828,1626894339114526397,imu,42.75,0.875,-21.5,0.0,0.0,0.0,0.0,0.0,0.0,0.0,0.0,0.0
1626894339124992022,82829,1626894339124992022,imu,42.75,0.875,-21.5,0.0,0.0,0.0,0.0,0.0,0.0,0.0,0.0,0.0
1626894339132221710,82830,1626894339132221710,imu,42.75,0.875,-21.5,0.0,0.0,0.0,0.0,0.0,0.0,0.0,0.0,0.0
1626894339144634731,82831,1626894339144634731,imu,42.0625,0.5,-21.875,0.0,0.0,0.0,0.0,0.0,0.0,0.0,0.0,0.0
1626894339154369470,82832,1626894339154369470,imu,42.0625,0.5,-21.875,0.0,0.0,0.0,0.0,0.0,0.0,0.0,0.0,0.0
1626894339164392960,82833,1626894339164392960,imu,42.0625,0.5,-21.875,0.0,0.0,0.0,0.0,0.0,0.0,0.0,0.0,0.0
1626894339174645877,82834,1626894339174645877,imu,42.0625,0.5,-21.875,0.0,0.0,0.0,0.0,0.0,0.0,0.0,0.0,0.0
1626894339181122074,82835,1626894339181122074,imu,42.0625,0.5,-21.875,0.0,0.0,0.0,0.0,0.0,0.0,0.0,0.0,0.0
1626894339191196502,82836,1626894339191196502,imu,42.0625,0.5,-21.5,0.0,0.0,0.0,0.0,0.0,0.0,0.0,0.0,0.0
1626894339204568272,82837,1626894339204568272,imu,42.0625,0.5,-21.5,0.0,0.0,0.0,0.0,0.0,0.0,0.0,0.0,0.0
1626894339214213012,82838,1626894339214213012,imu,42.0625,0.5,-21.5,0.0,0.0,0.0,0.0,0.0,0.0,0.0,0.0,0.0
1626894339224522960,82839,1626894339224522960,imu,42.0625,0.5,-21.5,0.0,0.0,0.0,0.0,0.0,0.0,0.0,0.0,0.0
1626894339231170877,82840,1626894339231170877,imu,42.0625,0.5,-21.5,0.0,0.0,0.0,0.0,0.0,0.0,0.0,0.0,0.0
1626894339241602856,82841,1626894339241602856,imu,42.25,0.5,-20.6875,0.0,0.0,0.0,0.0,0.0,0.0,0.0,0.0,0.0
1626894339253988324,82842,1626894339253988324,imu,42.25,0.5,-20.6875,0.0,0.0,0.0,0.0,0.0,0.0,0.0,0.0,0.0
1626894339264259835,82843,1626894339264259835,imu,42.25,0.5,-20.6875,0.0,0.0,0.0,0.0,0.0,0.0,0.0,0.0,0.0
1626894339274667179,82844,1626894339274667179,imu,42.25,0.5,-20.6875,0.0,0.0,0.0,0.0,0.0,0.0,0.0,0.0,0.0
1626894339281075304,82845,1626894339281075304,imu,42.25,0.5,-20.6875,0.0,0.0,0.0,0.0,0.0,0.0,0.0,0.0,0.0
1626894339291173637,82846,1626894339291173637,imu,42.6875,1.1875,-21.875,0.0,0.0,0.0,0.0,0.0,0.0,0.0,0.0,0.0
1626894339304735876,82847,1626894339304735876,imu,42.6875,1.1875,-21.875,0.0,0.0,0.0,0.0,0.0,0.0,0.0,0.0,0.0
1626894339314410616,82848,1626894339314410616,imu,42.6875,1.1875,-21.875,0.0,0.0,0.0,0.0,0.0,0.0,0.0,0.0,0.0
1626894339324622074,82849,1626894339324622074,imu,42.6875,1.1875,-21.875,0.0,0.0,0.0,0.0,0.0,0.0,0.0,0.0,0.0
1626894339331412595,82850,1626894339331412595,imu,42.6875,1.1875,-21.875,0.0,0.0,0.0,0.0,0.0,0.0,0.0,0.0,0.0
1626894339341257960,82851,1626894339341257960,imu,42.6875,1.5625,-21.875,0.0,0.0,0.0,0.0,0.0,0.0,0.0,0.0,0.0
1626894339353955981,82852,1626894339353955981,imu,42.6875,1.5625,-21.875,0.0,0.0,0.0,0.0,0.0,0.0,0.0,0.0,0.0
1626894339364406606,82853,1626894339364406606,imu,42.6875,1.5625,-21.875,0.0,0.0,0.0,0.0,0.0,0.0,0.0,0.0,0.0
1626894339376356137,82854,1626894339376356137,imu,42.6875,1.5625,-21.875,0.0,0.0,0.0,0.0,0.0,0.0,0.0,0.0,0.0
1626894339383893116,82855,1626894339383893116,imu,42.6875,1.5625,-21.875,0.0,0.0,0.0,0.0,0.0,0.0,0.0,0.0,0.0
1626894339391194991,82856,1626894339391194991,imu,43.1875,1.1875,-21.5,0.0,0.0,0.0,0.0,0.0,0.0,0.0,0.0,0.0
1626894339404282804,82857,1626894339404282804,imu,43.1875,1.1875,-21.5,0.0,0.0,0.0,0.0,0.0,0.0,0.0,0.0,0.0
1626894339414443637,82858,1626894339414443637,imu,43.1875,1.1875,-21.5,0.0,0.0,0.0,0.0,0.0,0.0,0.0,0.0,0.0
1626894339424298324,82859,1626894339424298324,imu,43.1875,1.1875,-21.5,0.0,0.0,0.0,0.0,0.0,0.0,0.0,0.0,0.0
1626894339432028220,82860,1626894339432028220,imu,43.1875,1.1875,-21.5,0.0,0.0,0.0,0.0,0.0,0.0,0.0,0.0,0.0
1626894339441201345,82861,1626894339441201345,imu,43.1875,0.5,-21.875,0.0,0.0,0.0,0.0,0.0,0.0,0.0,0.0,0.0
1626894339454014158,82862,1626894339454014158,imu,43.1875,0.5,-21.875,0.0,0.0,0.0,0.0,0.0,0.0,0.0,0.0,0.0
1626894339464227439,82863,1626894339464227439,imu,43.1875,0.5,-21.875,0.0,0.0,0.0,0.0,0.0,0.0,0.0,0.0,0.0
1626894339474870147,82864,1626894339474870147,imu,43.1875,0.5,-21.875,0.0,0.0,0.0,0.0,0.0,0.0,0.0,0.0,0.0
1626894339481411397,82865,1626894339481411397,imu,43.1875,0.5,-21.875,0.0,0.0,0.0,0.0,0.0,0.0,0.0,0.0,0.0
1626894339491154314,82866,1626894339491154314,imu,43.1875,-0.25,-21.0,0.0,0.0,0.0,0.0,0.0,0.0,0.0,0.0,0.0
1626894339504264574,82867,1626894339504264574,imu,43.1875,-0.25,-21.0,0.0,0.0,0.0,0.0,0.0,0.0,0.0,0.0,0.0
1626894339514730199,82868,1626894339514730199,imu,43.1875,-0.25,-21.0,0.0,0.0,0.0,0.0,0.0,0.0,0.0,0.0,0.0
1626894339524410303,82869,1626894339524410303,imu,43.1875,-0.25,-21.0,0.0,0.0,0.0,0.0,0.0,0.0,0.0,0.0,0.0
1626894339532751553,82870,1626894339532751553,imu,43.1875,-0.25,-21.0,0.0,0.0,0.0,0.0,0.0,0.0,0.0,0.0,0.0
1626894339541136085,82871,1626894339541136085,imu,43.1875,-2.0625,-22.25,0.0,0.0,0.0,0.0,0.0,0.0,0.0,0.0,0.0
1626894339554214887,82872,1626894339554214887,imu,43.1875,-2.0625,-22.25,0.0,0.0,0.0,0.0,0.0,0.0,0.0,0.0,0.0
1626894339564336658,82873,1626894339564336658,imu,43.1875,-2.0625,-22.25,0.0,0.0,0.0,0.0,0.0,0.0,0.0,0.0,0.0
1626894339575408897,82874,1626894339575408897,imu,43.1875,-2.0625,-22.25,0.0,0.0,0.0,0.0,0.0,0.0,0.0,0.0,0.0
1626894339581266033,82875,1626894339581266033,imu,43.1875,-2.0625,-22.25,0.0,0.0,0.0,0.0,0.0,0.0,0.0,0.0,0.0
1626894339591123585,82876,1626894339591123585,imu,42.75,-1.0,-22.25,0.0,0.0,0.0,0.0,0.0,0.0,0.0,0.0,0.0
1626894339604556710,82877,1626894339604556710,imu,42.75,-1.0,-22.25,0.0,0.0,0.0,0.0,0.0,0.0,0.0,0.0,0.0
1626894339614421866,82878,1626894339614421866,imu,42.75,-1.0,-22.25,0.0,0.0,0.0,0.0,0.0,0.0,0.0,0.0,0.0
1626894339624411033,82879,1626894339624411033,imu,42.75,-1.0,-22.25,0.0,0.0,0.0,0.0,0.0,0.0,0.0,0.0,0.0
1626894339631356762,82880,1626894339631356762,imu,42.75,-1.0,-22.25,0.0,0.0,0.0,0.0,0.0,0.0,0.0,0.0,0.0
1626894339641180928,82881,1626894339641180928,imu,43.25,-0.5625,-22.25,0.0,0.0,0.0,0.0,0.0,0.0,0.0,0.0,0.0
1626894339654125251,82882,1626894339654125251,imu,43.25,-0.5625,-22.25,0.0,0.0,0.0,0.0,0.0,0.0,0.0,0.0,0.0
1626894339664454626,82883,1626894339664454626,imu,43.25,-0.5625,-22.25,0.0,0.0,0.0,0.0,0.0,0.0,0.0,0.0,0.0
1626894339674638845,82884,1626894339674638845,imu,43.25,-0.5625,-22.25,0.0,0.0,0.0,0.0,0.0,0.0,0.0,0.0,0.0
1626894339681624783,82885,1626894339681624783,imu,43.25,-0.5625,-22.25,0.0,0.0,0.0,0.0,0.0,0.0,0.0,0.0,0.0
1626894339691861866,82886,1626894339691861866,imu,42.75,-0.5625,-22.25,0.0,0.0,0.0,0.0,0.0,0.0,0.0,0.0,0.0
1626894339704940303,82887,1626894339704940303,imu,42.75,-0.5625,-22.25,0.0,0.0,0.0,0.0,0.0,0.0,0.0,0.0,0.0
1626894339714362699,82888,1626894339714362699,imu,42.75,-0.5625,-22.25,0.0,0.0,0.0,0.0,0.0,0.0,0.0,0.0,0.0
1626894339724890199,82889,1626894339724890199,imu,42.75,-0.5625,-22.25,0.0,0.0,0.0,0.0,0.0,0.0,0.0,0.0,0.0
1626894339733620408,82890,1626894339733620408,imu,42.75,-0.5625,-22.25,0.0,0.0,0.0,0.0,0.0,0.0,0.0,0.0,0.0
1626894339741142908,82891,1626894339741142908,imu,42.75,-1.0,-20.6875,0.0,0.0,0.0,0.0,0.0,0.0,0.0,0.0,0.0
1626894339754028585,82892,1626894339754028585,imu,42.75,-1.0,-20.6875,0.0,0.0,0.0,0.0,0.0,0.0,0.0,0.0,0.0
1626894339764394574,82893,1626894339764394574,imu,42.75,-1.0,-20.6875,0.0,0.0,0.0,0.0,0.0,0.0,0.0,0.0,0.0
1626894339776682803,82894,1626894339776682803,imu,42.75,-1.0,-20.6875,0.0,0.0,0.0,0.0,0.0,0.0,0.0,0.0,0.0
1626894339782859835,82895,1626894339782859835,imu,42.75,-1.0,-20.6875,0.0,0.0,0.0,0.0,0.0,0.0,0.0,0.0,0.0
1626894339791202283,82896,1626894339791202283,imu,42.375,-0.5625,-22.25,0.0,0.0,0.0,0.0,0.0,0.0,0.0,0.0,0.0
1626894339804359210,82897,1626894339804359210,imu,42.375,-0.5625,-22.25,0.0,0.0,0.0,0.0,0.0,0.0,0.0,0.0,0.0
1626894339814555199,82898,1626894339814555199,imu,42.375,-0.5625,-22.25,0.0,0.0,0.0,0.0,0.0,0.0,0.0,0.0,0.0
1626894339825294835,82899,1626894339825294835,imu,42.375,-0.5625,-22.25,0.0,0.0,0.0,0.0,0.0,0.0,0.0,0.0,0.0
1626894339831185095,82900,1626894339831185095,imu,42.375,-0.5625,-22.25,0.0,0.0,0.0,0.0,0.0,0.0,0.0,0.0,0.0
1626894339841709783,82901,1626894339841709783,imu,42.0625,-1.0,-21.0,0.0,0.0,0.0,0.0,0.0,0.0,0.0,0.0,0.0
1626894339853971553,82902,1626894339853971553,imu,42.0625,-1.0,-21.0,0.0,0.0,0.0,0.0,0.0,0.0,0.0,0.0,0.0
1626894339864508168,82903,1626894339864508168,imu,42.0625,-1.0,-21.0,0.0,0.0,0.0,0.0,0.0,0.0,0.0,0.0,0.0
1626894339876570303,82904,1626894339876570303,imu,42.0625,-1.0,-21.0,0.0,0.0,0.0,0.0,0.0,0.0,0.0,0.0,0.0
1626894339882657283,82905,1626894339882657283,imu,42.0625,-1.0,-21.0,0.0,0.0,0.0,0.0,0.0,0.0,0.0,0.0,0.0
1626894339891136553,82906,1626894339891136553,imu,42.75,-1.375,-23.0625,0.0,0.0,0.0,0.0,0.0,0.0,0.0,0.0,0.0
1626894339904227908,82907,1626894339904227908,imu,42.75,-1.375,-23.0625,0.0,0.0,0.0,0.0,0.0,0.0,0.0,0.0,0.0
1626894339914907491,82908,1626894339914907491,imu,42.75,-1.375,-23.0625,0.0,0.0,0.0,0.0,0.0,0.0,0.0,0.0,0.0
1626894339925382960,82909,1626894339925382960,imu,42.75,-1.375,-23.0625,0.0,0.0,0.0,0.0,0.0,0.0,0.0,0.0,0.0
1626894339931304730,82910,1626894339931304730,imu,42.75,-1.375,-23.0625,0.0,0.0,0.0,0.0,0.0,0.0,0.0,0.0,0.0
1626894339943527126,82911,1626894339943527126,imu,42.375,-0.5625,-23.0625,0.0,0.0,0.0,0.0,0.0,0.0,0.0,0.0,0.0
1626894339953877439,82912,1626894339953877439,imu,42.375,-0.5625,-23.0625,0.0,0.0,0.0,0.0,0.0,0.0,0.0,0.0,0.0
1626894339964539939,82913,1626894339964539939,imu,42.375,-0.5625,-23.0625,0.0,0.0,0.0,0.0,0.0,0.0,0.0,0.0,0.0
1626894339974565720,82914,1626894339974565720,imu,42.375,-0.5625,-23.0625,0.0,0.0,0.0,0.0,0.0,0.0,0.0,0.0,0.0
1626894339981317907,82915,1626894339981317907,imu,42.375,-0.5625,-23.0625,0.0,0.0,0.0,0.0,0.0,0.0,0.0,0.0,0.0
1626894339991136293,82916,1626894339991136293,imu,42.875,-1.375,-21.875,0.0,0.0,0.0,0.0,0.0,0.0,0.0,0.0,0.0
1626894340004407543,82917,1626894340004407543,imu,42.875,-1.375,-21.875,0.0,0.0,0.0,0.0,0.0,0.0,0.0,0.0,0.0
1626894340014713585,82918,1626894340014713585,imu,42.875,-1.375,-21.875,0.0,0.0,0.0,0.0,0.0,0.0,0.0,0.0,0.0
1626894340025207022,82919,1626894340025207022,imu,42.875,-1.375,-21.875,0.0,0.0,0.0,0.0,0.0,0.0,0.0,0.0,0.0
1626894340031097595,82920,1626894340031097595,imu,42.875,-1.375,-21.875,0.0,0.0,0.0,0.0,0.0,0.0,0.0,0.0,0.0
1626894340041141814,82921,1626894340041141814,imu,41.6875,-0.5625,-23.0625,0.0,0.0,0.0,0.0,0.0,0.0,0.0,0.0,0.0
1626894340054168897,82922,1626894340054168897,imu,41.6875,-0.5625,-23.0625,0.0,0.0,0.0,0.0,0.0,0.0,0.0,0.0,0.0
1626894340064430824,82923,1626894340064430824,imu,41.6875,-0.5625,-23.0625,0.0,0.0,0.0,0.0,0.0,0.0,0.0,0.0,0.0
1626894340074685407,82924,1626894340074685407,imu,41.6875,-0.5625,-23.0625,0.0,0.0,0.0,0.0,0.0,0.0,0.0,0.0,0.0
1626894340081367178,82925,1626894340081367178,imu,41.6875,-0.5625,-23.0625,0.0,0.0,0.0,0.0,0.0,0.0,0.0,0.0,0.0
1626894340091172022,82926,1626894340091172022,imu,42.0625,-1.75,-21.875,0.0,0.0,0.0,0.0,0.0,0.0,0.0,0.0,0.0
1626894340104634418,82927,1626894340104634418,imu,42.0625,-1.75,-21.875,0.0,0.0,0.0,0.0,0.0,0.0,0.0,0.0,0.0
1626894340114323480,82928,1626894340114323480,imu,42.0625,-1.75,-21.875,0.0,0.0,0.0,0.0,0.0,0.0,0.0,0.0,0.0
1626894340124734262,82929,1626894340124734262,imu,42.0625,-1.75,-21.875,0.0,0.0,0.0,0.0,0.0,0.0,0.0,0.0,0.0
1626894340132262803,82930,1626894340132262803,imu,42.0625,-1.75,-21.875,0.0,0.0,0.0,0.0,0.0,0.0,0.0,0.0,0.0
1626894340141129053,82931,1626894340141129053,imu,42.0625,-2.0625,-23.875,0.0,0.0,0.0,0.0,0.0,0.0,0.0,0.0,0.0
1626894340154202491,82932,1626894340154202491,imu,42.0625,-2.0625,-23.875,0.0,0.0,0.0,0.0,0.0,0.0,0.0,0.0,0.0
1626894340164525459,82933,1626894340164525459,imu,42.0625,-2.0625,-23.875,0.0,0.0,0.0,0.0,0.0,0.0,0.0,0.0,0.0
1626894340174668480,82934,1626894340174668480,imu,42.0625,-2.0625,-23.875,0.0,0.0,0.0,0.0,0.0,0.0,0.0,0.0,0.0
1626894340181155407,82935,1626894340181155407,imu,42.0625,-2.0625,-23.875,0.0,0.0,0.0,0.0,0.0,0.0,0.0,0.0,0.0
1626894340191131605,82936,1626894340191131605,imu,42.75,-1.75,-23.0625,0.0,0.0,0.0,0.0,0.0,0.0,0.0,0.0,0.0
1626894340204724105,82937,1626894340204724105,imu,42.75,-1.75,-23.0625,0.0,0.0,0.0,0.0,0.0,0.0,0.0,0.0,0.0
1626894340214504001,82938,1626894340214504001,imu,42.75,-1.75,-23.0625,0.0,0.0,0.0,0.0,0.0,0.0,0.0,0.0,0.0
1626894340224858949,82939,1626894340224858949,imu,42.75,-1.75,-23.0625,0.0,0.0,0.0,0.0,0.0,0.0,0.0,0.0,0.0
1626894340232510720,82940,1626894340232510720,imu,42.75,-1.75,-23.0625,0.0,0.0,0.0,0.0,0.0,0.0,0.0,0.0,0.0
1626894340241830303,82941,1626894340241830303,imu,42.375,-2.0625,-24.25,0.0,0.0,0.0,0.0,0.0,0.0,0.0,0.0,0.0
1626894340254201241,82942,1626894340254201241,imu,42.375,-2.0625,-24.25,0.0,0.0,0.0,0.0,0.0,0.0,0.0,0.0,0.0
1626894340264419782,82943,1626894340264419782,imu,42.375,-2.0625,-24.25,0.0,0.0,0.0,0.0,0.0,0.0,0.0,0.0,0.0
1626894340274734157,82944,1626894340274734157,imu,42.375,-2.0625,-24.25,0.0,0.0,0.0,0.0,0.0,0.0,0.0,0.0,0.0
1626894340281401345,82945,1626894340281401345,imu,42.375,-2.0625,-24.25,0.0,0.0,0.0,0.0,0.0,0.0,0.0,0.0,0.0
1626894340291395876,82946,1626894340291395876,imu,42.1875,-3.1875,-22.25,0.0,0.0,0.0,0.0,0.0,0.0,0.0,0.0,0.0
1626894340304535043,82947,1626894340304535043,imu,42.1875,-3.1875,-22.25,0.0,0.0,0.0,0.0,0.0,0.0,0.0,0.0,0.0
1626894340314319678,82948,1626894340314319678,imu,42.1875,-3.1875,-22.25,0.0,0.0,0.0,0.0,0.0,0.0,0.0,0.0,0.0
1626894340324895720,82949,1626894340324895720,imu,42.1875,-3.1875,-22.25,0.0,0.0,0.0,0.0,0.0,0.0,0.0,0.0,0.0
1626894340331736970,82950,1626894340331736970,imu,42.1875,-3.1875,-22.25,0.0,0.0,0.0,0.0,0.0,0.0,0.0,0.0,0.0
1626894340341741345,82951,1626894340341741345,imu,42.1875,-3.1875,-23.5625,0.0,0.0,0.0,0.0,0.0,0.0,0.0,0.0,0.0
1626894340354262022,82952,1626894340354262022,imu,42.1875,-3.1875,-23.5625,0.0,0.0,0.0,0.0,0.0,0.0,0.0,0.0,0.0
1626894340364714522,82953,1626894340364714522,imu,42.1875,-3.1875,-23.5625,0.0,0.0,0.0,0.0,0.0,0.0,0.0,0.0,0.0
1626894340374994522,82954,1626894340374994522,imu,42.1875,-3.1875,-23.5625,0.0,0.0,0.0,0.0,0.0,0.0,0.0,0.0,0.0
1626894340381531032,82955,1626894340381531032,imu,42.1875,-3.1875,-23.5625,0.0,0.0,0.0,0.0,0.0,0.0,0.0,0.0,0.0
1626894340391374678,82956,1626894340391374678,imu,42.5,-3.1875,-23.1875,0.0,0.0,0.0,0.0,0.0,0.0,0.0,0.0,0.0
1626894340404308116,82957,1626894340404308116,imu,42.5,-3.1875,-23.1875,0.0,0.0,0.0,0.0,0.0,0.0,0.0,0.0,0.0
1626894340414254261,82958,1626894340414254261,imu,42.5,-3.1875,-23.1875,0.0,0.0,0.0,0.0,0.0,0.0,0.0,0.0,0.0
1626894340424427907,82959,1626894340424427907,imu,42.5,-3.1875,-23.1875,0.0,0.0,0.0,0.0,0.0,0.0,0.0,0.0,0.0
1626894340431411761,82960,1626894340431411761,imu,42.5,-3.1875,-23.1875,0.0,0.0,0.0,0.0,0.0,0.0,0.0,0.0,0.0
1626894340441407126,82961,1626894340441407126,imu,42.5,-4.25,-23.5625,0.0,0.0,0.0,0.0,0.0,0.0,0.0,0.0,0.0
1626894340454290147,82962,1626894340454290147,imu,42.5,-4.25,-23.5625,0.0,0.0,0.0,0.0,0.0,0.0,0.0,0.0,0.0
1626894340464603949,82963,1626894340464603949,imu,42.5,-4.25,-23.5625,0.0,0.0,0.0,0.0,0.0,0.0,0.0,0.0,0.0
1626894340474516241,82964,1626894340474516241,imu,42.5,-4.25,-23.5625,0.0,0.0,0.0,0.0,0.0,0.0,0.0,0.0,0.0
1626894340481368324,82965,1626894340481368324,imu,42.5,-4.25,-23.5625,0.0,0.0,0.0,0.0,0.0,0.0,0.0,0.0,0.0
1626894340491358689,82966,1626894340491358689,imu,41.75,-4.25,-23.1875,0.0,0.0,0.0,0.0,0.0,0.0,0.0,0.0,0.0
1626894340504368845,82967,1626894340504368845,imu,41.75,-4.25,-23.1875,0.0,0.0,0.0,0.0,0.0,0.0,0.0,0.0,0.0
1626894340514357751,82968,1626894340514357751,imu,41.75,-4.25,-23.1875,0.0,0.0,0.0,0.0,0.0,0.0,0.0,0.0,0.0
1626894340524500199,82969,1626894340524500199,imu,41.75,-4.25,-23.1875,0.0,0.0,0.0,0.0,0.0,0.0,0.0,0.0,0.0
1626894340531313376,82970,1626894340531313376,imu,41.75,-4.25,-23.1875,0.0,0.0,0.0,0.0,0.0,0.0,0.0,0.0,0.0
1626894340541383220,82971,1626894340541383220,imu,42.1875,-4.6875,-22.0,0.0,0.0,0.0,0.0,0.0,0.0,0.0,0.0,0.0
1626894340554778584,82972,1626894340554778584,imu,42.1875,-4.6875,-22.0,0.0,0.0,0.0,0.0,0.0,0.0,0.0,0.0,0.0
1626894340564417230,82973,1626894340564417230,imu,42.1875,-4.6875,-22.0,0.0,0.0,0.0,0.0,0.0,0.0,0.0,0.0,0.0
1626894340574640043,82974,1626894340574640043,imu,42.1875,-4.6875,-22.0,0.0,0.0,0.0,0.0,0.0,0.0,0.0,0.0,0.0
1626894340581375824,82975,1626894340581375824,imu,42.1875,-4.6875,-22.0,0.0,0.0,0.0,0.0,0.0,0.0,0.0,0.0,0.0
1626894340591432491,82976,1626894340591432491,imu,42.1875,-4.6875,-22.75,0.0,0.0,0.0,0.0,0.0,0.0,0.0,0.0,0.0
1626894340604291918,82977,1626894340604291918,imu,42.1875,-4.6875,-22.75,0.0,0.0,0.0,0.0,0.0,0.0,0.0,0.0,0.0
1626894340614225772,82978,1626894340614225772,imu,42.1875,-4.6875,-22.75,0.0,0.0,0.0,0.0,0.0,0.0,0.0,0.0,0.0
1626894340624470876,82979,1626894340624470876,imu,42.1875,-4.6875,-22.75,0.0,0.0,0.0,0.0,0.0,0.0,0.0,0.0,0.0
1626894340632051553,82980,1626894340632051553,imu,42.1875,-4.6875,-22.75,0.0,0.0,0.0,0.0,0.0,0.0,0.0,0.0,0.0
1626894340641433480,82981,1626894340641433480,imu,42.5,-4.6875,-22.375,0.0,0.0,0.0,0.0,0.0,0.0,0.0,0.0,0.0
1626894340654853897,82982,1626894340654853897,imu,42.5,-4.6875,-22.375,0.0,0.0,0.0,0.0,0.0,0.0,0.0,0.0,0.0
1626894340664144834,82983,1626894340664144834,imu,42.5,-4.6875,-22.375,0.0,0.0,0.0,0.0,0.0,0.0,0.0,0.0,0.0
1626894340674926709,82984,1626894340674926709,imu,42.5,-4.6875,-22.375,0.0,0.0,0.0,0.0,0.0,0.0,0.0,0.0,0.0
1626894340681952230,82985,1626894340681952230,imu,42.5,-4.6875,-22.375,0.0,0.0,0.0,0.0,0.0,0.0,0.0,0.0,0.0
1626894340691419991,82986,1626894340691419991,imu,42.5,-5.5,-22.75,0.0,0.0,0.0,0.0,0.0,0.0,0.0,0.0,0.0
1626894340704150459,82987,1626894340704150459,imu,42.5,-5.5,-22.75,0.0,0.0,0.0,0.0,0.0,0.0,0.0,0.0,0.0
1626894340714230303,82988,1626894340714230303,imu,42.5,-5.5,-22.75,0.0,0.0,0.0,0.0,0.0,0.0,0.0,0.0,0.0
1626894340725183480,82989,1626894340725183480,imu,42.5,-5.5,-22.75,0.0,0.0,0.0,0.0,0.0,0.0,0.0,0.0,0.0
1626894340731374470,82990,1626894340731374470,imu,42.5,-5.5,-22.75,0.0,0.0,0.0,0.0,0.0,0.0,0.0,0.0,0.0
1626894340741677699,82991,1626894340741677699,imu,42.5,-5.0,-23.1875,0.0,0.0,0.0,0.0,0.0,0.0,0.0,0.0,0.0
1626894340753995720,82992,1626894340753995720,imu,42.5,-5.0,-23.1875,0.0,0.0,0.0,0.0,0.0,0.0,0.0,0.0,0.0
1626894340764099886,82993,1626894340764099886,imu,42.5,-5.0,-23.1875,0.0,0.0,0.0,0.0,0.0,0.0,0.0,0.0,0.0
1626894340774401136,82994,1626894340774401136,imu,42.5,-5.0,-23.1875,0.0,0.0,0.0,0.0,0.0,0.0,0.0,0.0,0.0
1626894340782486970,82995,1626894340782486970,imu,42.5,-5.0,-23.1875,0.0,0.0,0.0,0.0,0.0,0.0,0.0,0.0,0.0
1626894340791311709,82996,1626894340791311709,imu,42.375,-5.375,-22.375,0.0,0.0,0.0,0.0,0.0,0.0,0.0,0.0,0.0
1626894340804051188,82997,1626894340804051188,imu,42.375,-5.375,-22.375,0.0,0.0,0.0,0.0,0.0,0.0,0.0,0.0,0.0
1626894340814039105,82998,1626894340814039105,imu,42.375,-5.375,-22.375,0.0,0.0,0.0,0.0,0.0,0.0,0.0,0.0,0.0
1626894340824248793,82999,1626894340824248793,imu,42.375,-5.375,-22.375,0.0,0.0,0.0,0.0,0.0,0.0,0.0,0.0,0.0
1626894340831353168,83000,1626894340831353168,imu,42.375,-5.375,-22.375,0.0,0.0,0.0,0.0,0.0,0.0,0.0,0.0,0.0
1626894340841541240,83001,1626894340841541240,imu,42.0625,-6.5,-22.0,0.0,0.0,0.0,0.0,0.0,0.0,0.0,0.0,0.0
1626894340853903272,83002,1626894340853903272,imu,42.0625,-6.5,-22.0,0.0,0.0,0.0,0.0,0.0,0.0,0.0,0.0,0.0
1626894340864046397,83003,1626894340864046397,imu,42.0625,-6.5,-22.0,0.0,0.0,0.0,0.0,0.0,0.0,0.0,0.0,0.0
1626894340874428584,83004,1626894340874428584,imu,42.0625,-6.5,-22.0,0.0,0.0,0.0,0.0,0.0,0.0,0.0,0.0,0.0
1626894340881377803,83005,1626894340881377803,imu,42.0625,-6.5,-22.0,0.0,0.0,0.0,0.0,0.0,0.0,0.0,0.0,0.0
1626894340891408115,83006,1626894340891408115,imu,42.375,-6.0625,-22.0,0.0,0.0,0.0,0.0,0.0,0.0,0.0,0.0,0.0
1626894340904000980,83007,1626894340904000980,imu,42.375,-6.0625,-22.0,0.0,0.0,0.0,0.0,0.0,0.0,0.0,0.0,0.0
1626894340914025772,83008,1626894340914025772,imu,42.375,-6.0625,-22.0,0.0,0.0,0.0,0.0,0.0,0.0,0.0,0.0,0.0
1626894340924329418,83009,1626894340924329418,imu,42.375,-6.0625,-22.0,0.0,0.0,0.0,0.0,0.0,0.0,0.0,0.0,0.0
1626894340931278845,83010,1626894340931278845,imu,42.375,-6.0625,-22.0,0.0,0.0,0.0,0.0,0.0,0.0,0.0,0.0,0.0
1626894340941352490,83011,1626894340941352490,imu,42.0625,-6.0625,-21.875,0.0,0.0,0.0,0.0,0.0,0.0,0.0,0.0,0.0
1626894340954011813,83012,1626894340954011813,imu,42.0625,-6.0625,-21.875,0.0,0.0,0.0,0.0,0.0,0.0,0.0,0.0,0.0
1626894340964168793,83013,1626894340964168793,imu,42.0625,-6.0625,-21.875,0.0,0.0,0.0,0.0,0.0,0.0,0.0,0.0,0.0
1626894340974279574,83014,1626894340974279574,imu,42.0625,-6.0625,-21.875,0.0,0.0,0.0,0.0,0.0,0.0,0.0,0.0,0.0
1626894340982718688,83015,1626894340982718688,imu,42.0625,-6.0625,-21.875,0.0,0.0,0.0,0.0,0.0,0.0,0.0,0.0,0.0
1626894340991390928,83016,1626894340991390928,imu,43.5,-6.75,-21.0,0.0,0.0,0.0,0.0,0.0,0.0,0.0,0.0,0.0
1626894341003942647,83017,1626894341003942647,imu,43.5,-6.75,-21.0,0.0,0.0,0.0,0.0,0.0,0.0,0.0,0.0,0.0
1626894341015765407,83018,1626894341015765407,imu,43.5,-6.75,-21.0,0.0,0.0,0.0,0.0,0.0,0.0,0.0,0.0,0.0
1626894341024927647,83019,1626894341024927647,imu,43.5,-6.75,-21.0,0.0,0.0,0.0,0.0,0.0,0.0,0.0,0.0,0.0
1626894341032115980,83020,1626894341032115980,imu,43.5,-6.75,-21.0,0.0,0.0,0.0,0.0,0.0,0.0,0.0,0.0,0.0
1626894341041328011,83021,1626894341041328011,imu,42.6875,-7.1875,-20.25,0.0,0.0,0.0,0.0,0.0,0.0,0.0,0.0,0.0
1626894341053936032,83022,1626894341053936032,imu,42.6875,-7.1875,-20.25,0.0,0.0,0.0,0.0,0.0,0.0,0.0,0.0,0.0
1626894341063969053,83023,1626894341063969053,imu,42.6875,-7.1875,-20.25,0.0,0.0,0.0,0.0,0.0,0.0,0.0,0.0,0.0
1626894341074124678,83024,1626894341074124678,imu,42.6875,-7.1875,-20.25,0.0,0.0,0.0,0.0,0.0,0.0,0.0,0.0,0.0
1626894341081284886,83025,1626894341081284886,imu,42.6875,-7.1875,-20.25,0.0,0.0,0.0,0.0,0.0,0.0,0.0,0.0,0.0
1626894341091653115,83026,1626894341091653115,imu,43.1875,-6.75,-20.6875,0.0,0.0,0.0,0.0,0.0,0.0,0.0,0.0,0.0
1626894341104004522,83027,1626894341104004522,imu,43.1875,-6.75,-20.6875,0.0,0.0,0.0,0.0,0.0,0.0,0.0,0.0,0.0
1626894341114001553,83028,1626894341114001553,imu,43.1875,-6.75,-20.6875,0.0,0.0,0.0,0.0,0.0,0.0,0.0,0.0,0.0
1626894341124290199,83029,1626894341124290199,imu,43.1875,-6.75,-20.6875,0.0,0.0,0.0,0.0,0.0,0.0,0.0,0.0,0.0
1626894341131324678,83030,1626894341131324678,imu,43.1875,-6.75,-20.6875,0.0,0.0,0.0,0.0,0.0,0.0,0.0,0.0,0.0
1626894341142139105,83031,1626894341142139105,imu,43.5,-7.1875,-20.6875,0.0,0.0,0.0,0.0,0.0,0.0,0.0,0.0,0.0
1626894341154064938,83032,1626894341154064938,imu,43.5,-7.1875,-20.6875,0.0,0.0,0.0,0.0,0.0,0.0,0.0,0.0,0.0
1626894341163907282,83033,1626894341163907282,imu,43.5,-7.1875,-20.6875,0.0,0.0,0.0,0.0,0.0,0.0,0.0,0.0,0.0
1626894341174178636,83034,1626894341174178636,imu,43.5,-7.1875,-20.6875,0.0,0.0,0.0,0.0,0.0,0.0,0.0,0.0,0.0
1626894341181358480,83035,1626894341181358480,imu,43.5,-7.1875,-20.6875,0.0,0.0,0.0,0.0,0.0,0.0,0.0,0.0,0.0
1626894341191332542,83036,1626894341191332542,imu,42.1875,-8.0,-20.6875,0.0,0.0,0.0,0.0,0.0,0.0,0.0,0.0,0.0
1626894341203947803,83037,1626894341203947803,imu,42.1875,-8.0,-20.6875,0.0,0.0,0.0,0.0,0.0,0.0,0.0,0.0,0.0
1626894341213788584,83038,1626894341213788584,imu,42.1875,-8.0,-20.6875,0.0,0.0,0.0,0.0,0.0,0.0,0.0,0.0,0.0
1626894341224148688,83039,1626894341224148688,imu,42.1875,-8.0,-20.6875,0.0,0.0,0.0,0.0,0.0,0.0,0.0,0.0,0.0
1626894341231384157,83040,1626894341231384157,imu,42.1875,-8.0,-20.6875,0.0,0.0,0.0,0.0,0.0,0.0,0.0,0.0,0.0
1626894341241426397,83041,1626894341241426397,imu,42.5,-8.6875,-20.6875,0.0,0.0,0.0,0.0,0.0,0.0,0.0,0.0,0.0
1626894341253818376,83042,1626894341253818376,imu,42.5,-8.6875,-20.6875,0.0,0.0,0.0,0.0,0.0,0.0,0.0,0.0,0.0
1626894341263886084,83043,1626894341263886084,imu,42.5,-8.6875,-20.6875,0.0,0.0,0.0,0.0,0.0,0.0,0.0,0.0,0.0
1626894341274158011,83044,1626894341274158011,imu,42.5,-8.6875,-20.6875,0.0,0.0,0.0,0.0,0.0,0.0,0.0,0.0,0.0
1626894341281406657,83045,1626894341281406657,imu,42.5,-8.6875,-20.6875,0.0,0.0,0.0,0.0,0.0,0.0,0.0,0.0,0.0
1626894341291883688,83046,1626894341291883688,imu,42.75,-8.0,-19.5,0.0,0.0,0.0,0.0,0.0,0.0,0.0,0.0,0.0
1626894341303783376,83047,1626894341303783376,imu,42.75,-8.0,-19.5,0.0,0.0,0.0,0.0,0.0,0.0,0.0,0.0,0.0
1626894341313838532,83048,1626894341313838532,imu,42.75,-8.0,-19.5,0.0,0.0,0.0,0.0,0.0,0.0,0.0,0.0,0.0
1626894341324214678,83049,1626894341324214678,imu,42.75,-8.0,-19.5,0.0,0.0,0.0,0.0,0.0,0.0,0.0,0.0,0.0
1626894341331266449,83050,1626894341331266449,imu,42.75,-8.0,-19.5,0.0,0.0,0.0,0.0,0.0,0.0,0.0,0.0,0.0
1626894341341427230,83051,1626894341341427230,imu,43.1875,-9.0625,-19.875,0.0,0.0,0.0,0.0,0.0,0.0,0.0,0.0,0.0
1626894341353777594,83052,1626894341353777594,imu,43.1875,-9.0625,-19.875,0.0,0.0,0.0,0.0,0.0,0.0,0.0,0.0,0.0
1626894341363791917,83053,1626894341363791917,imu,43.1875,-9.0625,-19.875,0.0,0.0,0.0,0.0,0.0,0.0,0.0,0.0,0.0
1626894341374152959,83054,1626894341374152959,imu,43.1875,-9.0625,-19.875,0.0,0.0,0.0,0.0,0.0,0.0,0.0,0.0,0.0
1626894341381317282,83055,1626894341381317282,imu,43.1875,-9.0625,-19.875,0.0,0.0,0.0,0.0,0.0,0.0,0.0,0.0,0.0
1626894341391307959,83056,1626894341391307959,imu,42.6875,-9.0625,-18.6875,0.0,0.0,0.0,0.0,0.0,0.0,0.0,0.0,0.0
1626894341403738011,83057,1626894341403738011,imu,42.6875,-9.0625,-18.6875,0.0,0.0,0.0,0.0,0.0,0.0,0.0,0.0,0.0
1626894341413912699,83058,1626894341413912699,imu,42.6875,-9.0625,-18.6875,0.0,0.0,0.0,0.0,0.0,0.0,0.0,0.0,0.0
1626894341424203480,83059,1626894341424203480,imu,42.6875,-9.0625,-18.6875,0.0,0.0,0.0,0.0,0.0,0.0,0.0,0.0,0.0
1626894341433537386,83060,1626894341433537386,imu,42.6875,-9.0625,-18.6875,0.0,0.0,0.0,0.0,0.0,0.0,0.0,0.0,0.0
1626894341441500303,83061,1626894341441500303,imu,42.75,-9.75,-19.5,0.0,0.0,0.0,0.0,0.0,0.0,0.0,0.0,0.0
1626894341453843115,83062,1626894341453843115,imu,42.75,-9.75,-19.5,0.0,0.0,0.0,0.0,0.0,0.0,0.0,0.0,0.0
1626894341463691396,83063,1626894341463691396,imu,42.75,-9.75,-19.5,0.0,0.0,0.0,0.0,0.0,0.0,0.0,0.0,0.0
1626894341474082699,83064,1626894341474082699,imu,42.75,-9.75,-19.5,0.0,0.0,0.0,0.0,0.0,0.0,0.0,0.0,0.0
1626894341481294678,83065,1626894341481294678,imu,42.75,-9.75,-19.5,0.0,0.0,0.0,0.0,0.0,0.0,0.0,0.0,0.0
1626894341491695615,83066,1626894341491695615,imu,42.75,-9.0625,-19.0,0.0,0.0,0.0,0.0,0.0,0.0,0.0,0.0,0.0
1626894341503711969,83067,1626894341503711969,imu,42.75,-9.0625,-19.0,0.0,0.0,0.0,0.0,0.0,0.0,0.0,0.0,0.0
1626894341513674730,83068,1626894341513674730,imu,42.75,-9.0625,-19.0,0.0,0.0,0.0,0.0,0.0,0.0,0.0,0.0,0.0
1626894341524496188,83069,1626894341524496188,imu,42.75,-9.0625,-19.0,0.0,0.0,0.0,0.0,0.0,0.0,0.0,0.0,0.0
1626894341531358324,83070,1626894341531358324,imu,42.75,-9.0625,-19.0,0.0,0.0,0.0,0.0,0.0,0.0,0.0,0.0,0.0
